iata,city,state,longitude,latitude,passengers,airport_id
ATL,Atlanta,GA,-84.42786399960693,33.63669961099959,46075000.0,0
ORD,Chicago,IL,-87.90659722179846,41.97452194378772,33248993.0,1
DEN,Denver,CO,-104.67316666709075,39.86166666671349,30193165.0,2
LAX,Los Angeles,CA,-118.40804861098472,33.94249638870734,30191435.0,3
DFW,Dallas-Fort Worth,TX,-97.03769494382843,32.89723155612109,28736329.0,4
LAS,Las Vegas,NV,-115.15225000000237,36.080055556247814,22163751.0,5
SEA,Seattle,WA,-122.31177777829649,47.44988888905729,21435085.0,6
SFO,San Francisco,CA,-122.37541666713363,37.61880555583101,21060080.0,7
PHX,Phoenix,AZ,-112.01158333319859,33.43427777773061,20821934.0,8
CLT,Charlotte,NC,-80.94905555608683,35.21375000006177,20760093.0,9
MCO,Orlando,FL,-81.30899999990766,28.429388889069656,20140371.0,10
MSP,Minneapolis,MN,-93.22177777808383,44.8819722217615,16999677.0,11
BOS,Boston,MA,-71.00638888906613,42.36294444402285,16436778.0,12
IAH,Houston,TX,-95.3414425000344,29.98443527821907,16004306.0,13
EWR,Newark,NJ,-74.1686867777057,40.69247983273326,15922353.0,14
DTW,Detroit,MI,-83.3533888888456,42.212444444134114,15618595.0,15
JFK,New York,NY,-73.77869497222194,40.639925749925425,14051938.0,16
LGA,New York,NY,-73.87261111058638,40.77724999969072,13963605.0,17
FLL,Ft. Lauderdale,FL,-80.14969444361779,26.071666667214785,13506937.0,18
PHL,Philadelphia,PA,-75.24066305562101,39.872083888747305,13382365.0,19
BWI,Baltimore,MD,-76.66899111090534,39.175728333295204,12935474.0,20
SLC,Salt Lake City,UT,-111.97777333305241,40.788393332688344,11785964.0,21
SAN,San Diego,CA,-117.18966666696491,32.73355555580745,11770792.0,22
DCA,Arlington,VA,-77.03772222176019,38.85144444396098,11196280.0,23
MIA,Miami,FL,-80.29011583333677,25.79536111065603,10536523.0,24
MDW,Chicago,IL,-87.7524166665543,41.78597222208724,10488611.0,25
TPA,Tampa,FL,-82.53324999987471,27.975472221960462,9989690.0,26
PDX,Portland,OR,-122.5968694165518,45.58870886124275,9391236.0,27
DAL,Dallas,TX,-96.85087666742595,32.84594472213851,8126907.0,28
BNA,Nashville,TN,-86.67816666731498,36.12447222232407,7867965.0,29
IAD,Chantilly,VA,-77.45994444416762,38.94744444403362,7778740.0,30
STL,St Louis,MO,-90.37002888902781,38.748697222298134,7700214.0,31
AUS,Austin,TX,-97.66987611083259,30.194527221816,7695208.0,32
HNL,Honolulu,HI,-157.92026272242202,21.31782749964713,7207386.0,33
HOU,Houston,TX,-95.2788888892482,29.645416667192922,6739497.0,34
SJC,San Jose,CA,-121.92862055581864,37.36299472218325,6665271.0,35
MSY,New Orleans,LA,-90.25902777761469,29.99327777794861,6582784.0,36
OAK,Oakland,CA,-122.22113888902292,37.72125000016389,6315999.0,37
RDU,Raleigh,NC,-78.78747222162067,35.87763888917826,6121061.0,38
MCI,Kansas City,MO,-94.71388888923202,39.2976111110312,5906908.0,39
SMF,Sacramento,CA,-121.59077777795471,38.69544444367053,5861193.0,40
SNA,Santa Ana,CA,-117.86822222234629,33.675666666784444,5102026.0,41
SAT,San Antonio,TX,-98.46905705628996,29.533958000357213,4738235.0,42
IND,Indianapolis,IN,-86.29463888888408,39.71730555632778,4646155.0,43
CLE,Cleveland,OH,-81.85469444359506,41.40941666679453,4620955.0,44
PIT,Pittsburgh,PA,-80.23269444419411,40.491416666909494,4550405.0,45
RSW,Ft. Myers,FL,-81.75516666709294,26.536166666979646,4459073.0,46
CVG,Covington,KY,-84.6678222217444,39.04883666718477,4148195.0,47
CMH,Columbus,OH,-82.89216111072591,39.99694722172402,3961774.0,48
SJU,San Juan,PR,-66.00213333300621,18.43939916721143,3603770.0,49
MKE,Milwaukee,WI,-87.89705555580238,42.94694444384183,3477398.0,50
OGG,Kahului,HI,-156.43045444430132,20.89865305561085,3391563.0,51
BDL,Windsor Locks,CT,-72.68336111081905,41.939138888666506,3208910.0,52
PBI,West Palm Beach,FL,-80.09558333282241,26.683166666876563,3202387.0,53
JAX,Jacksonville,FL,-81.68783333268237,30.494055555914702,3158245.0,54
BUR,Burbank,CA,-118.35866666662952,34.200694444075474,2730555.0,55
ABQ,Albuquerque,NM,-106.60826216712351,35.038931555902664,2724754.0,56
ANC,Anchorage,AK,-149.99818863893827,61.17415650011856,2560072.0,57
BUF,Buffalo,NY,-78.7305833331172,42.940416666730044,2518452.0,58
OMA,Omaha,NE,-95.89405555603771,41.30316666666885,2489816.0,59
ONT,Ontario,CA,-117.60119444411829,34.055999999790856,2430960.0,60
MEM,Memphis,TN,-89.97667916663902,35.042411388972496,2213052.0,61
CHS,Charleston,SC,-80.0405277782531,32.89863888937168,2205900.0,62
OKC,Oklahoma City,OK,-97.60076172174247,35.39307402766115,2143150.0,63
RIC,Richmond,VA,-77.31973883337315,37.5051810557439,2056762.0,64
RNO,Reno,NV,-119.76811111056223,39.49911111085936,2036317.0,65
PVD,Providence,RI,-71.42772222221173,41.722333332765686,2020164.0,66
BOI,Boise,ID,-116.22286111087534,43.56436111116769,1972209.0,67
LGB,Long Beach,CA,-118.15189055639068,33.817929722145315,1907136.0,68
SDF,Louisville,KY,-85.73649888880645,38.17408583308971,1894073.0,69
GEG,Spokane,WA,-117.5352222217548,47.61902777796456,1880089.0,70
ORF,Norfolk,VA,-76.20122916707199,36.89460416688896,1857258.0,71
TUS,Tucson,AZ,-110.94101388888348,32.11606916668755,1761350.0,72
KOA,Kailua/Kona,HI,-156.04563138865552,19.73876583279334,1712321.0,73
GRR,Grand Rapids,MI,-85.52280555594548,42.8808333330781,1644799.0,74
ELP,El Paso,TX,-106.37636111083911,31.807333332841697,1629967.0,75
LIH,Lihue,HI,-159.33895772160488,21.97598286059504,1620023.0,76
TUL,Tulsa,OK,-95.88811111095188,36.198388889080455,1518393.0,77
BHM,Birmingham,AL,-86.752305555673,33.56388888883807,1498116.0,78
ALB,Albany,NY,-73.8019722220686,42.74911111094815,1444988.0,79
SFB,Orlando,FL,-81.23491388936915,28.77717805631628,1388832.0,80
DSM,Des Moines,IA,-93.66308333338169,41.53397222211096,1357026.0,81
SAV,Savannah,GA,-81.20213888856739,32.1275833331747,1353984.0,82
MYR,Myrtle Beach,SC,-78.92833333307796,33.67975000022002,1281035.0,83
ROC,Rochester,NY,-77.67186888913128,43.119143611021336,1276250.0,84
GSP,Greer,SC,-82.21886111118502,34.8956666670178,1135515.0,85
SYR,Syracuse,NY,-76.10630555643829,43.11119444428955,1133535.0,86
PIE,St. Petersburg,FL,-82.6865000001975,27.90869444427721,1090461.0,87
TYS,Knoxville,TN,-83.99532144432867,35.80937386122432,1070937.0,88
PWM,Portland,ME,-70.30861636112448,43.64564350000433,1062723.0,89
LIT,Little Rock,AR,-92.22477777827152,34.72944444395861,1047377.0,90
MSN,Madison,WI,-89.33750447231584,43.1398791388965,1047370.0,91
PNS,Pensacola,FL,-87.18661111129026,30.47341666718382,983308.0,92
PSP,Palm Springs,CA,-116.50669444387786,33.829666666692205,954934.0,93
GSO,Greensboro,NC,-79.94112344374574,36.10132586088117,941025.0,94
MHT,Manchester,NH,-71.43574999968025,42.93280555606592,913318.0,95
COS,Colorado Springs,CO,-104.70077472187168,38.80581305634611,887154.0,96
DAY,Dayton,OH,-84.21941666720679,39.9022500002171,856879.0,97
ICT,Wichita,KS,-97.43305555576056,37.64994444365925,830035.0,98
ISP,Islip,NY,-73.10066505614762,40.796135693855966,822963.0,99
PGD,Punta Gorda,FL,-81.99092583301237,26.91893777838025,786912.0,100
HPN,White Plains,NY,-73.70756655577325,41.066952749869024,775269.0,101
XNA,Fayetteville/Springdale/Rogers,AR,-94.30776555559264,36.281579167173135,755720.0,102
FAT,Fresno,CA,-119.71883333305078,36.77655555632403,739059.0,103
VPS,Valparaiso,FL,-86.52604433294813,30.48321941676273,682836.0,104
BZN,Bozeman,MT,-111.15026038861151,45.77723575027836,668922.0,105
SRQ,Sarasota,FL,-82.55438888923929,27.395444443899517,663328.0,106
BTV,Burlington,VT,-73.15327830615676,44.47195555594468,657817.0,107
LEX,Lexington,KY,-84.60863888868163,38.03674999983877,653598.0,108
MAF,Midland,TX,-102.20191666729627,31.94252777819325,630751.0,109
MDT,Harrisburg,PA,-76.76262061123566,40.19319066693471,629594.0,110
ITO,Hilo,HI,-155.04847013855482,19.72026300007163,599025.0,111
CID,Cedar Rapids,IA,-91.71079861081152,41.88468858325885,598816.0,112
HSV,Huntsville,AL,-86.7750555564317,34.63719444426325,590549.0,113
CAE,Columbia,SC,-81.11953611133158,33.93883777793331,579331.0,114
AVL,Asheville,NC,-82.54272888890377,35.43444444373643,573855.0,115
EUG,Eugene,OR,-123.21197222210769,44.124583333075364,562493.0,116
FAI,Fairbanks,AK,-147.85644444390996,64.81511111100465,556005.0,117
ACY,Atlantic City,NJ,-74.5771666672198,39.45758333310054,535764.0,118
FSD,Sioux Falls,SD,-96.74191638909949,43.582013333052366,527527.0,119
SGF,Springfield,MO,-93.38863888899652,37.245666667019584,521095.0,120
CHA,Chattanooga,TN,-85.20355555626666,35.035194444164645,508241.0,122
LBB,Lubbock,TX,-101.82055555616043,33.66366666698694,494232.0,123
MFR,Medford,OR,-122.87350000011408,42.37422222195619,491840.0,124
JAN,Jackson,MS,-90.07588888922487,32.311166667022626,488104.0,125
ILM,Wilmington,NC,-77.90288888856477,34.27113888868046,469187.0,126
CAK,Akron,OH,-81.44363888922697,40.91505555586231,446256.0,127
JNU,Juneau,AK,-134.57847052786943,58.354711806126005,445890.0,128
BIL,Billings,MT,-108.54354355643629,45.80784913926959,440611.0,129
EYW,Key West,FL,-81.75995583290928,24.55611972205631,432179.0,130
RDM,Redmond,OR,-121.14997138861249,44.254068888805435,430651.0,131
FAR,Fargo,ND,-96.81575000027959,46.92063888911792,427526.0,132
MSO,Missoula,MT,-114.09055555585975,46.91630555618439,424118.0,133
STT,Charlotte Amalie,VI,-64.97333333325881,18.337305555753137,409803.0,134
TTN,Trenton,NJ,-74.81347222173268,40.27669444424771,404455.0,135
SBA,Santa Barbara,CA,-119.841492693983,34.42619136073335,400966.0,136
PSC,Pasco,WA,-119.1190277776697,46.26469444374477,395312.0,137
BTR,Baton Rouge,LA,-91.14988888911728,30.532916666971197,388734.0,138
TLH,Tallahassee,FL,-84.35086888905694,30.396754166935292,386266.0,139
JAC,Jackson,WY,-110.73775000006441,43.60733333312048,380029.0,140
ABE,Allentown,PA,-75.44041666697458,40.65236111115039,378615.0,141
FWA,Fort Wayne,IN,-85.19516666683369,40.97847222212997,371382.0,142
AMA,Amarillo,TX,-101.70591666669857,35.21936111080778,368753.0,143
DAB,Daytona Beach,FL,-81.05805555611859,29.17991666672661,365171.0,144
SBN,South Bend,IN,-86.317333333334,41.708222221989466,361748.0,145
BLI,Bellingham,WA,-122.53752777787805,48.792694443913184,360931.0,146
FNT,Flint,MI,-83.74474999991018,42.96547222222523,360528.0,147
MLI,Moline,IL,-90.50752777795488,41.44827777804839,354158.0,148
CHO,Charlottesville,VA,-78.45233333323604,38.13963888872289,350759.0,149
ATW,Appleton,WI,-88.51908333284806,44.25808333324359,346820.0,150
MFE,McAllen,TX,-98.23861111086573,26.17583333277687,338953.0,151
CRP,Corpus Christi,TX,-97.50241666714346,27.77219444416981,334349.0,152
PIA,Peoria,IL,-89.69325000005581,40.664194443902005,328047.0,153
ROA,Roanoke,VA,-79.97541666744623,37.32547222208076,327802.0,154
GRB,Green Bay,WI,-88.1297133331192,44.48463361118606,310002.0,155
BGR,Bangor,ME,-68.82813888924983,44.80744444404519,307718.0,156
RAP,Rapid City,SD,-103.0573611112243,44.04533333270327,304738.0,157
AGS,Augusta,GA,-81.96449999977298,33.36994444433138,302259.0,158
HRL,Harlingen,TX,-97.6551388892705,26.227111111362706,300084.0,159
SHV,Shreveport,LA,-93.82561111060268,32.44661111136223,299068.0,160
MOB,Mobile,AL,-88.24283333313234,30.69141666664625,297801.0,161
BQN,Aguadilla,PR,-67.12944444362785,18.494861110815364,294227.0,162
ASE,Aspen,CO,-106.86822222168163,39.22188888933064,283589.0,163
BIS,Bismarck,ND,-100.7457500001218,46.77272222222516,283164.0,164
GPT,Gulfport-Biloxi,MS,-89.0700833326047,30.40727777795795,272886.0,165
AVP,Wilkes-Barre/Scranton,PA,-75.72338888931881,41.33847222221178,257794.0,166
TVC,Traverse City,MI,-85.58186111084565,44.74158333301129,246653.0,167
SBP,San Luis Obispo,CA,-120.64261111057378,35.237277777789714,234727.0,168
FAY,Fayetteville,NC,-78.88027777818925,34.99122222223759,234454.0,169
GJT,Grand Junction,CO,-108.52674999956068,39.12241666723601,233862.0,170
MLB,Melbourne,FL,-80.6452500000337,28.102750000370804,231414.0,171
GNV,Gainesville,FL,-82.27177777796119,29.690055556295466,231160.0,172
EVV,Evansville,IN,-87.52850000000858,38.04080555598372,228342.0,173
KTN,Ketchikan,AK,-131.71122222188558,55.35408333285999,228120.0,174
LFT,Lafayette,LA,-91.98774999982979,30.20502777821331,222769.0,175
STS,Santa Rosa,CA,-122.8128888892303,38.50969444365965,218172.0,176
CRW,Charleston,WV,-81.5928928894169,38.376012639202536,216303.0,177
STX,Christiansted,VI,-64.8019429166836,17.70150444417683,209488.0,178
TRI,Bristol,TN,-82.40741527766947,36.47520777792507,201589.0,179
PHF,Newport News,VA,-76.49297222184676,37.13188888913016,195111.0,180
DRO,Durango,CO,-107.7537777780133,37.151527777752044,189485.0,181
SWF,Newburgh,NY,-74.10483333255114,41.50411111100853,187037.0,182
MRY,Monterey,CA,-121.84278305573747,36.58695222211306,185738.0,183
RST,Rochester,MN,-92.50002777790456,43.90827777799141,183300.0,184
BMI,Bloomington,IL,-88.91591666711149,40.47711111078911,178619.0,185
GTF,Great Falls,MT,-111.37027941695476,47.48229927791482,175834.0,186
EGE,Eagle,CO,-106.91594444410772,39.6427499999181,171977.0,187
MGM,Montgomery,AL,-86.393972222348,32.300638888933435,171209.0,188
LAN,Lansing,MI,-84.58619444357862,42.778638888961225,165887.0,189
IDA,Idaho Falls,ID,-112.07074999981796,43.513722221771744,161483.0,190
GUM,Agana,GU,144.7971271107716,13.483950666758506,161151.0,191
BET,Bethel,AK,-161.83716666703066,60.77855555582736,154967.0,192
BLV,Belleville/St. Louis,IL,-89.83519444381315,38.54516666681109,152055.0,193
LCK,Columbus,OH,-82.92780555602225,39.81377777781385,151742.0,194
AZO,Kalamazoo,MI,-85.55155555630206,42.23438888888122,150720.0,195
OAJ,Jacksonville,NC,-77.61213888899725,34.829166667321786,150673.0,196
LBE,Latrobe,PA,-79.41032555580237,40.27310050002264,149689.0,197
MOT,Minot,ND,-101.27802777805412,48.25763888888441,148025.0,198
LNK,Lincoln,NE,-96.75911111112309,40.850888889257476,146669.0,199
ELM,Elmira,NY,-76.8917456673922,42.1598561389656,140933.0,200
DLH,Duluth,MN,-92.19364861144454,46.84209027782783,135644.0,201
MTJ,Montrose,CO,-107.89424999980095,38.50980555568627,134143.0,202
GRK,Killeen,TX,-97.82891666674816,31.06724999990006,131046.0,203
SIT,Sitka,AK,-135.36106869355615,57.046834361182356,127522.0,204
MBS,Saginaw,MI,-84.07963888894788,43.53291666724781,126196.0,205
SGU,St George,UT,-113.5103055561544,37.03638888928981,122918.0,206
ACK,Nantucket,MA,-70.05991141733871,41.252975055932225,122219.0,207
CWA,Mosinee,WI,-89.66677802844512,44.77762366680597,122034.0,208
TOL,Toledo,OH,-83.80783333284637,41.5868055561243,120632.0,209
IAG,Niagara Falls,NY,-78.94584666687159,43.10755736114168,118858.0,211
COU,Columbia,MO,-92.21802777793788,38.81733333278334,117650.0,212
SAF,Santa Fe,NM,-106.08941666676759,35.61711111070307,115485.0,213
AEX,Alexandria,LA,-92.54855611073744,31.327371666660017,115398.0,214
HLN,Helena,MT,-111.98327777792214,46.60672222222183,115326.0,215
GFK,Grand Forks,ND,-97.17377777794896,47.947277778117105,113022.0,216
EWN,New Bern,NC,-77.04302008286069,35.07285252814834,111139.0,217
RFD,Rockford,IL,-89.09722222156721,42.19536111117021,109909.0,218
CMI,Champaign/Urbana,IL,-88.27780555562687,40.03883333271974,108142.0,219
BRO,Brownsville,TX,-97.4259999997712,25.906138888596892,107214.0,220
MLU,Monroe,LA,-92.03766666725613,32.51086111088131,106060.0,221
BFL,Bakersfield,CA,-119.05766666694844,35.433861111211755,105517.0,222
HDN,Hayden,CO,-107.2176666668798,40.48119444370749,100407.0,223
HTS,Huntington,WV,-82.56036022179988,38.368507805922604,100047.0,224
ITH,Ithaca,NY,-76.45872222238275,42.49136111122464,98875.0,225
SCK,Stockton,CA,-121.23873999983749,37.894410277669465,98842.0,226
LSE,La Crosse,WI,-91.25663888873837,43.87927777772626,96876.0,227
ERI,Erie,PA,-80.17394444405133,42.08308333296709,95146.0,228
ENA,Kenai,AK,-151.24483333261293,60.57327777815068,93573.0,229
SUN,Hailey,ID,-114.29555833333728,43.50378055627633,92507.0,230
PSE,Ponce,PR,-66.56452083275018,18.008780556308306,90197.0,231
FSM,Fort Smith,AR,-94.36744444428196,35.33658333292319,87276.0,232
CPR,Casper,WY,-106.46363888879844,42.90586111077091,86331.0,233
LRD,Laredo,TX,-99.46158333279962,27.54419444407012,83333.0,234
LYH,Lynchburg,VA,-79.2012222223778,37.32538888881787,82302.0,235
ABI,Abilene,TX,-99.6818888886842,32.41133333324512,80883.0,236
PVU,Provo,UT,-111.72336111109392,40.21916666712306,80183.0,237
MKK,Kaunakakai,HI,-157.09625611094418,21.152885832912858,79345.0,238
ADQ,Kodiak,AK,-152.49394366728217,57.74979222187429,78929.0,239
OTZ,Kotzebue,AK,-162.5981388893822,66.88480555604617,76851.0,240
SCC,Deadhorse,AK,-148.46516486130605,70.19475411106986,76819.0,241
OME,Nome,AK,-165.44438888875018,64.51255555588732,76339.0,242
CLL,College Station,TX,-96.36254444444671,30.58804188884577,76223.0,243
SPI,Springfield,IL,-89.67808333258397,39.84422222212059,75426.0,244
ISN,Williston,ND,-103.64234666708643,48.17793861112875,73844.0,245
ORH,Worcester,MA,-71.87561111071365,42.26713888909162,71320.0,246
YKM,Yakima,WA,-120.54405555555084,46.568166666776406,70888.0,247
MHK,Manhattan,KS,-96.67179699990378,39.14123394380897,70545.0,248
ACV,Arcata/Eureka,CA,-124.10847222214213,40.97783333287897,69502.0,249
FLG,Flagstaff,AZ,-111.66924138904824,35.140315832857034,67237.0,250
PUW,"Pullman/Moscow,ID",WA,-117.10958333262272,46.743861110850496,65621.0,251
SBY,Salisbury,MD,-75.50947833304237,38.34018944370485,64771.0,252
EAT,Wenatchee,WA,-120.20683333298685,47.39880555583672,64491.0,253
GRI,Grand Island,NE,-98.30963888905312,40.96754249971481,61739.0,254
BRW,Barrow,AK,-156.76858333288828,71.28486111095201,60147.0,255
LCH,Lake Charles,LA,-93.22341666718313,30.12608333322381,59319.0,256
ROW,Roswell,NM,-104.52939763899015,33.29986966677529,56771.0,257
ACT,Waco,TX,-97.2303055562846,31.61219444426785,55997.0,258
LWS,Lewiston,ID,-117.01538888899674,46.374500000137566,55249.0,259
PSG,Petersburg,AK,-132.9462222216188,56.801472222122,54640.0,260
SJT,San Angelo,TX,-100.49630555600763,31.35775000027413,54258.0,261
DHN,Dothan,AL,-85.449472221937,31.321027777999525,52857.0,262
MVY,Marthas Vineyard,MA,-70.61388413910153,41.39342205630285,50702.0,263
PGV,Greenville,NC,-77.38408333269629,35.6356944439331,49906.0,264
ALW,Walla Walla,WA,-118.28408249955478,46.09254166719131,49485.0,265
WRG,Wrangell,AK,-132.3698333328199,56.484333333119174,49092.0,266
CSG,Columbus,GA,-84.93886111066665,32.516333333140665,48674.0,267
TYR,Tyler,TX,-95.40297222183956,32.35355555569091,48399.0,268
LAW,Lawton,OK,-98.41663666738577,34.56771444425329,47932.0,269
TWF,Twin Falls,ID,-114.487750000291,42.481805556059214,47715.0,270
PIH,Pocatello,ID,-112.5959166672488,42.909805556011065,46894.0,271
AKN,King Salmon,AK,-156.64869100042347,58.676493472079706,46590.0,272
JHM,Lahaina,HI,-156.67303166692037,20.96293638937929,46574.0,273
FLO,Florence,SC,-79.7238888891527,34.18536111119305,44483.0,274
VLD,Valdosta,GA,-83.27621944404503,30.781372222108264,44417.0,275
GTR,Columbus-Starkville-West Point,MS,-88.59138888906868,33.44827777768505,44328.0,276
SUX,Sioux City,IA,-96.38436111089649,42.402611110929044,44312.0,277
PSM,Portsmouth,NH,-70.82327777838152,43.07794444385289,43661.0,278
HOM,Homer,AK,-151.48580841710924,59.64499497189064,42539.0,279
RDD,Redding,CA,-122.2933888889348,40.50897222188526,42086.0,280
LNY,Lanai City,HI,-156.95141805621446,20.78561111095264,40548.0,281
BQK,Brunswick,GA,-81.46631583269851,31.259034694183175,40102.0,282
JLN,Joplin,MO,-94.49880777783473,37.15316833327136,39555.0,283
ABY,Albany,GA,-84.19447222234626,31.535527777669024,39542.0,284
COD,Cody,WY,-109.02380555565156,44.52019444430722,39479.0,285
HVN,New Haven,CT,-72.88680055559746,41.26374944421444,38668.0,286
SPS,Wichita Falls,TX,-98.491902777932,33.988802778228695,38290.0,287
TXK,Texarkana,AR,-93.9910277781492,33.45372222162944,37928.0,288
DBQ,Dubuque,IA,-90.70947222218297,42.40199999975576,37285.0,289
CDV,Cordova,AK,-145.47755555560397,60.49177777798953,37240.0,290
BGM,Binghamton,NY,-75.97960727836056,42.20844291715825,36268.0,291
GUC,Gunnison,CO,-106.93174999969787,38.53433333303424,36076.0,292
DLG,Dillingham,AK,-158.5054999997015,59.04466666716996,35118.0,293
CKB,Clarksburg,WV,-80.22753194393556,39.29765472220199,34010.0,294
PIR,Pierre,SD,-100.28597222234659,44.382694444107074,31564.0,295
YAK,Yakutat,AK,-139.66026805558667,59.50332333291937,30499.0,296
MEI,Meridian,MS,-88.7518611107138,32.332611111158506,29818.0,297
BJI,Bemidji,MN,-94.934722222414,47.51072222206691,28932.0,298
VQS,Isla De Vieques,PR,-65.49361666717702,18.13481111106887,28931.0,299
PLN,Pellston,MI,-84.79672222207452,45.570916667142974,28646.0,300
DUT,Unalaska,AK,-166.5450277780129,53.89894444410899,28398.0,301
ABR,Aberdeen,SD,-98.42244083335345,45.44679805624833,27738.0,302
BPT,Beaumont/Port Arthur,TX,-94.0206944436762,29.950833333320684,27625.0,303
PPG,Pago Pago,AS,-170.71150305556625,-14.331660000115411,27275.0,304
GCC,Gillette,WY,-105.53936111078494,44.34891666682092,26901.0,305
SWO,Stillwater,OK,-97.08588888867823,36.1613888892831,25646.0,306
BTM,Butte,MT,-112.49747222214843,45.95480555572721,25419.0,307
GCK,Garden City,KS,-100.72441666682072,37.92752777828776,25158.0,308
GGG,Longview,TX,-94.71150000029527,32.38400000016743,24570.0,309
RHI,Rhinelander,WI,-89.46662819357587,45.63089972188642,24291.0,310
ART,Watertown,NY,-76.0194166672503,43.99183333324417,23689.0,311
HGR,Hagerstown,MD,-77.72649999961031,39.708499999898756,23614.0,312
CMX,Hancock,MI,-88.48906083295897,47.168417222285406,23456.0,313
HOB,Hobbs,NM,-103.21733333327721,32.68750000028061,23413.0,314
OGS,Ogdensburg,NY,-75.46324999995058,44.68224999977105,23394.0,315
HYA,Hyannis,MA,-70.28036111060557,41.66933333302219,23371.0,316
MMH,Mammoth Lakes,CA,-118.83874999991787,37.62405555572832,23353.0,317
CIU,Sault Ste. Marie,MI,-84.4723888888665,46.25075000009635,23277.0,318
SMX,Santa Maria,CA,-120.45808333332992,34.89994444399607,22828.0,319
DIK,Dickinson,ND,-102.80186111120344,46.797333332934386,22669.0,320
RKS,Rock Springs,WY,-109.06519444422052,41.5942222218929,22642.0,321
ALO,Waterloo,IA,-92.40033333337456,42.557083333263826,22427.0,322
IPT,Williamsport,PA,-76.9218055560618,41.241666667238775,22283.0,323
HYS,Hays,KS,-99.27316666694412,38.84222222189847,21735.0,324
EAU,Eau Claire,WI,-91.48424999995925,44.8658055559729,21323.0,325
STC,St Cloud,MN,-94.05938888855108,45.546222221746426,20911.0,326
BRD,Brainerd,MN,-94.13380555575792,46.4042222222254,20909.0,327
PAH,Paducah,KY,-88.77295833262224,37.06028750012512,20771.0,328
IMT,Iron Mountain/Kingsford,MI,-88.11455555627369,45.8183611110665,19487.0,329
OWB,Owensboro,KY,-87.16682855583382,37.738834166827026,19454.0,330
JMS,Jamestown,ND,-98.67819444394863,46.92972222207247,19446.0,331
EKO,Elko,NV,-115.79133333296616,40.82499999997749,18214.0,332
OGD,Ogden,UT,-112.01293680597256,41.195665806114256,18202.0,333
ESC,Escanaba,MI,-87.09371666732265,45.722674999892156,17927.0,334
RIW,Riverton,WY,-108.45983333342329,43.06424999993617,17912.0,335
WST,Westerly,RI,-71.8034168332989,41.34963297209476,17615.0,336
SPB,Scappoose,OR,-122.86183333338086,45.7710277779162,17115.0,337
MKG,Muskegon,MI,-86.23543872229118,43.167671721958286,17110.0,338
LAR,Laramie,WY,-105.675000000187,41.312055556013696,16901.0,339
BID,Block Island,RI,-71.57783333286199,41.16811111105464,16766.0,340
BFF,Scottsbluff,NE,-103.59563888875452,41.8740277778397,16444.0,341
UNK,Unalakleet,AK,-160.79911111111196,63.88850000006134,16408.0,342
INL,International Falls,MN,-93.40216666736912,48.56558333282674,16218.0,343
HIB,Hibbing,MN,-92.83897222178524,47.386583332880754,15692.0,344
PIB,Hattiesburg-Laurel,MS,-89.33705555632059,31.467138888912892,15016.0,345
CDC,Cedar City,UT,-113.09886111121838,37.700972221856645,14769.0,346
CPX,Isla De Culebra,PR,-65.30388027825278,18.312948888588885,14280.0,347
SLN,Salina,KS,-97.65222222213804,38.790611110950636,14274.0,348
UIN,Quincy,IL,-91.19446336088892,39.94301738900799,14147.0,349
PUB,Pueblo,CO,-104.49802777756595,38.289944444203904,14118.0,350
SIG,San Juan,PR,-66.09847222230204,18.4567777777158,13778.0,351
SHD,Staunton/Harrisonburg,VA,-78.8964444439472,38.26383333280571,13401.0,352
SHR,Sheridan,WY,-106.98027777827022,44.76919444401874,13226.0,353
LBF,North Platte,NE,-100.68366666726831,41.12622222222927,13052.0,354
LWB,Lewisburg,WV,-80.39948249961634,37.85830666671985,13005.0,355
CCR,Concord,CA,-122.0568888886887,37.989666666946285,12826.0,356
GAL,Galena,AK,-156.93495872203198,64.73619652815759,12283.0,357
OTH,North Bend,OR,-124.24702777777831,43.41694444431833,12127.0,358
ANI,Aniak,AK,-159.5430427783914,61.58159694406074,12087.0,359
ATY,Watertown,SD,-97.15472222186544,44.91397222198717,11485.0,360
APN,Alpena,MI,-83.56030555578198,45.0780833331089,11220.0,361
PQI,Presque Isle,ME,-68.04479025031344,46.68896024987625,10783.0,362
CNY,Moab,UT,-109.75354191737148,38.757498693834044,10556.0,363
KSM,St. Mary's,AK,-163.30183333266234,62.06083333289584,10539.0,364
BFI,Seattle,WA,-122.30194444370072,47.52997222197453,10529.0,365
MWA,Marion,IL,-89.01108333311498,37.75497222166664,10465.0,366
GST,Gustavus,AK,-135.70741666663127,58.42527777792508,10335.0,367
LEB,Lebanon,NH,-72.30419444378512,43.62611111121272,10174.0,368
PRC,Prescott,AZ,-112.41922222174036,34.65483333315673,10140.0,369
PVC,Provincetown,MA,-70.22072222209927,42.07227777782504,10114.0,370
VDZ,Valdez,AK,-146.24476194409348,61.13421527778452,9950.0,371
DVL,Devils Lake,ND,-98.91000000033516,48.1165833327522,9940.0,372
FYU,Fort Yukon,AK,-145.2463333328236,66.57241666717353,9918.0,373
SDY,Sidney,MT,-104.19255555560663,47.70686111088416,9745.0,374
VRB,Vero Beach,FL,-80.41794444357022,27.655555555942424,9342.0,375
VEL,Vernal,UT,-109.51142275020737,40.43607802819484,9286.0,376
DEC,Decatur,IL,-88.86568916732547,39.83456250019261,9259.0,377
CGI,Cape Girardeau,MO,-89.57075000025505,37.22530555582206,8932.0,378
CDB,Cold Bay,AK,-162.72625000000954,55.20591666722781,8874.0,379
BRL,Burlington,IA,-91.12550000015764,40.78322222202194,8502.0,380
MCW,Mason City,IA,-93.33125000000256,43.157805555790056,8368.0,381
WYS,West Yellowstone,MT,-111.11763888923056,44.688388889001466,8161.0,382
HNS,Haines,AK,-135.523537499972,59.24382916685689,8145.0,383
FOD,Fort Dodge,IA,-94.19183333287016,42.55119444419064,8026.0,384
EWB,New Bedford,MA,-70.95783599988665,41.67656600018017,7824.0,385
VAK,Chevak,AK,-165.600888888668,61.54083333295741,7772.0,386
TBN,Fort Leonard Wood,MO,-92.14073611105472,37.74163111090454,7717.0,387
CEZ,Cortez,CO,-108.62805555638313,37.30299999990291,7681.0,388
BHB,Bar Harbor,ME,-68.36148972179657,44.44970527811597,7545.0,389
MCE,Merced,CA,-120.51391666723852,37.284750000261226,7356.0,390
ALS,Alamosa,CO,-105.8678752778854,37.43512499982853,7089.0,391
MAZ,Mayaguez,PR,-67.14847222200616,18.25569444381103,6838.0,392
SOV,Seldovia,AK,-151.7050416666156,59.44390555589234,6816.0,393
SGY,Skagway,AK,-135.31566361072674,59.46006194395858,6764.0,394
RKD,Rockland,ME,-69.09925672211925,44.06007436068435,6762.0,395
HNH,Hoonah,AK,-135.4087562499955,58.096199167056035,6691.0,396
HPB,Hooper Bay,AK,-166.146611110959,61.523861111208184,6663.0,397
IPL,Imperial,CA,-115.57874999979276,32.83422222219837,6633.0,398
PDT,Pendleton,OR,-118.84300836111434,45.69476508304785,6390.0,399
OOK,Toksook Bay,AK,-165.08719444403394,60.54133333298122,6051.0,400
SVC,Silver City,NM,-108.15638527810715,32.63654694366391,5948.0,401
MSL,Muscle Shoals,AL,-87.6102222216534,34.745305555707176,5856.0,402
JBR,Jonesboro,AR,-90.64641666695196,35.83172222212229,5796.0,403
MGW,Morgantown,WV,-79.91754697226445,39.64359541698255,5705.0,404
MKL,Jackson,TN,-88.91561111055752,35.599888888731165,5641.0,405
SCM,Scammon Bay,AK,-165.5737499997055,61.844541666893605,5609.0,406
CDR,Chadron,NE,-103.09540191674559,42.83755769371832,5583.0,407
WBB,Stebbins,AK,-162.27800000044152,63.515972221990346,5516.0,408
LNS,Lancaster,PA,-76.2943611112277,40.12236111102877,5510.0,409
RUT,Rutland,VT,-72.94962547197251,43.52973016688617,5458.0,410
CYS,Cheyenne,WY,-104.81047222239893,41.15563888904151,5448.0,411
DUJ,Du Bois,PA,-78.89869444435787,41.17827777828571,5440.0,412
GLH,Greenville,MS,-90.98561388866871,33.48288111134277,5398.0,413
IWD,Ironwood,MI,-90.13138888887428,46.52747222206096,5329.0,414
HRO,Harrison,AR,-93.15472888891978,36.261520556157976,5300.0,415
IRK,Kirksville,MO,-92.5449166672122,40.093472221964696,5300.0,416
AUG,Augusta,ME,-69.79731805572978,44.32064972184696,5278.0,417
LBL,Liberal,KS,-100.9599722223945,37.04391666702251,5216.0,418
AIA,Alliance,NE,-102.8037499996497,42.053222221854156,5160.0,419
CNM,Carlsbad,NM,-104.26336111125404,32.33744444381229,4994.0,420
TAL,Tanana,AK,-152.10811111097124,65.17438888891789,4972.0,421
SVA,Savoonga,AK,-170.49316666697158,63.68627777804678,4963.0,422
SLK,Saranac Lake,NY,-74.20618138866962,44.38530805581528,4960.0,423
IAN,Kiana,AK,-160.43652777810914,66.97594444393353,4956.0,424
EEK,Eek,AK,-162.04388888913226,60.21369444415769,4881.0,425
TVF,Thief River Falls,MN,-96.18500000044001,48.065666667103656,4855.0,426
WTK,Noatak,AK,-162.98041666658682,67.56116666694061,4837.0,427
CVN,Clovis,NM,-103.07758002782153,34.42659025005749,4753.0,428
SDP,Sand Point,AK,-160.52141666713172,55.313694444217354,4744.0,429
GAM,Gambell,AK,-171.73277777834704,63.766611111073466,4724.0,430
KVL,Kivalina,AK,-164.56350000036943,67.73613888894289,4691.0,431
WLK,Selawik,AK,-159.98575000018,66.60013888891268,4688.0,432
TUP,Tupelo,MS,-88.7698888890094,34.26900000019981,4672.0,433
ELI,Elim,AK,-162.27052777797562,64.61497222201314,4664.0,434
HOT,Hot Springs,AR,-93.09622222172621,34.47802777787418,4653.0,435
PHO,Point Hope,AK,-166.7992777777058,68.34875000000585,4616.0,436
BKW,Beckley,WV,-81.12416666700811,37.78733333297769,4602.0,437
EAR,Kearney,NE,-99.00677777773272,40.72702777771809,4522.0,438
MSS,Massena,NY,-74.84511111061819,44.93625000028426,4466.0,439
KLG,Kalskag,AK,-160.34558333317992,61.535972221820224,4413.0,440
JST,Johnstown,PA,-78.83466666674941,40.31555555594977,4322.0,441
ILI,Iliamna,AK,-154.91775224992352,59.75557811113369,4250.0,442
GGW,Glasgow,MT,-106.61480555584015,48.21244444394332,4084.0,444
AOO,Altoona,PA,-78.32002777834134,40.29636111127997,4083.0,445
MUE,Kamuela,HI,-155.66810722194833,20.001326944143642,4068.0,446
SOW,Show Low,AZ,-110.0056666665955,34.26547222163373,4022.0,447
KWT,Kwethluk,AK,-161.44369444408147,60.79033333313746,3996.0,448
BFD,Bradford,PA,-78.63996597196943,41.80295433309405,3931.0,449
MOU,Mountain Village,AK,-163.68286111133563,62.094777777986,3897.0,450
AUK,Alakanuk,AK,-164.7221944443892,62.683055555794056,3858.0,451
OLF,Wolf Point,MT,-105.57505555631005,48.09449999991188,3849.0,452
DDC,Dodge City,KS,-99.96541666692936,37.763111110775405,3829.0,453
NUL,Nulato,AK,-158.07422222203763,64.7293333328906,3758.0,454
WMO,White Mountain,AK,-163.41274999974385,64.68919444406835,3743.0,455
VEE,Venetie,AK,-146.36635833304155,67.00867500002947,3689.0,456
KTS,Brevig Mission,AK,-166.46572222211168,65.33133333312631,3672.0,457
ELD,El Dorado,AR,-92.8117488893894,33.2212378061883,3635.0,458
PGM,Port Graham,AK,-151.8303222217153,59.348475000057505,3608.0,459
KAE,Kake,AK,-133.94561472159538,56.97299638924101,3564.0,460
SHG,Shungnak,AK,-157.16241666690362,66.88808333316881,3521.0,462
KKA,Koyuk,AK,-161.15427777795756,64.93952777798637,3432.0,464
SHH,Shishmaref,AK,-166.08936111138937,66.24958333292257,3409.0,465
LUP,Kalaupapa,HI,-156.97359722162753,21.211040277722045,3256.0,467
HVR,Havre,MT,-109.76233333290013,48.54297222192161,3228.0,468
RBY,Ruby,AK,-155.46988888890746,64.72722222192931,3197.0,469
KEB,English Bay,AK,-151.92515583283563,59.35214833293394,3124.0,470
AKP,Anaktuvuk Pass,AK,-151.74333333296826,68.13361111087912,3120.0,471
PKB,Parkersburg,WV,-81.43929305637641,39.344961943715454,3078.0,473
ATK,Atqasuk,AK,-157.43566666726954,70.46711111113768,3010.0,474
OBU,Kobuk,AK,-156.89733333343057,66.9123333329794,2987.0,475
TLT,Tuluksak,AK,-160.92335277806032,61.08772777803643,2829.0,476
ADK,Adak,AK,-176.6424799168069,51.8835820558425,2795.0,477
AKI,Akiak,AK,-161.23058333271237,60.90289722210521,2764.0,478
SNP,St. Paul,AK,-170.2225555557876,57.16630555624118,2740.0,479
GDV,Glendive,MT,-104.80722222190563,47.13872222200057,2734.0,480
BTI,Kaktovik,AK,-143.65361111107663,70.11311111101396,2706.0,481
RSH,Russian Mission,AK,-161.31939872190918,61.77489027818717,2696.0,482
DRT,Del Rio,TX,-100.92715694383035,29.37420694377992,2686.0,483
HNM,Hana,HI,-156.01443788897947,20.79563716716329,2676.0,484
AGN,Angoon,AK,-134.58509388910423,57.50355527821866,2520.0,485
KAL,Kaltag,AK,-158.7413058331,64.31897999993433,2359.0,486
MCK,McCook,NE,-100.5920833333225,40.206277778022134,2355.0,487
BTT,Bettles,AK,-151.5290555561834,66.91394444386081,2344.0,488
KTB,Thorne Bay,AK,-132.53667583333478,55.687961943823254,2203.0,489
FKL,Franklin,PA,-79.86063888856,41.37741666680953,1986.0,491
KNW,New Stuyahok,AK,-157.37316666704123,59.451527778141404,1956.0,492
MCG,McGrath,AK,-155.6070480556553,62.95278391708345,1941.0,493
PIZ,Point Lay,AK,-163.00533333284392,69.7328888891421,1939.0,494
HUS,Hughes,AK,-154.26469444412558,66.03908333297686,1883.0,495
ARC,Arctic Village,AK,-145.57941527773525,68.11466944415275,1872.0,496
MTM,Metlakatla,AK,-131.57806750033257,55.13104527824797,1862.0,497
MYU,Mekoryuk,AK,-166.27019444395813,60.3723888888116,1854.0,498
KYU,Koyukuk,AK,-157.73044444397482,64.87580555601133,1829.0,499
SXP,Sheldon Point,AK,-164.84763888902762,62.520416666886476,1810.0,500
WNA,Napakiak,AK,-161.9785000003749,60.690333333218746,1810.0,501
KQA,Akutan,AK,-165.7783833333443,54.1339000001289,1752.0,502
RNT,Renton,WA,-122.21574999983808,47.49313888921353,1687.0,504
PAE,Everett,WA,-122.28158333277712,47.9070000002295,1651.0,505
TEX,Telluride,CO,-107.90874999965271,37.95380555629567,1633.0,506
CGA,Craig,AK,-133.1478011108151,55.47883138877078,1612.0,507
PEC,Pelican,AK,-136.23627333297492,57.95517222184942,1588.0,508
PKA,Napaskiak,AK,-161.778305556067,60.7029166668365,1420.0,509
MCN,Macon,GA,-83.6492222219423,32.69283333295876,1370.0,510
HYL,Hollis,AK,-132.62355555611364,55.49041666679854,1370.0,511
KVC,King Cove,AK,-162.26624722210346,55.11634722182394,1362.0,512
HHR,Hawthorne,CA,-118.33508333291776,33.922861111138374,1348.0,513
TKE,Tenakee Springs,AK,-135.2184438891589,57.77965833288846,1276.0,514
IFP,Bullhead City,AZ,-114.55933333258272,35.154611110641305,1242.0,515
PGA,Page,AZ,-111.44836111080784,36.9260833332347,1071.0,516
ANV,Anvik,AK,-160.19005555563956,62.647333332831685,1065.0,517
ORI,Port Lions,AK,-152.8475722216304,57.88492499982735,1059.0,518
GNU,Goodnews,AK,-161.57366666724647,59.11786111104431,1054.0,519
KGX,Grayling,AK,-160.06639688902237,62.892085306124436,1037.0,520
SHX,Shageluk,AK,-159.56922222171474,62.69230555597154,986.0,521
WBQ,Beaver,AK,-147.4064999998322,66.36222222203703,916.0,522
KEK,Ekwok,AK,-157.4711388893563,59.3568333331633,868.0,523
GCN,Grand Canyon,AZ,-112.1469722223554,35.95236111069532,825.0,524
CIK,Chalkyitsik,AK,-143.73988888895332,66.64502777798147,781.0,525
SVS,Stevens Village,AK,-149.05436111106076,66.01716666696103,757.0,526
AKK,Akhiok,AK,-154.1825555560042,56.93869083318543,702.0,527
ELV,Elfin Cove,AK,-136.3473927776638,58.1951841669297,672.0,528
CEC,Crescent City,CA,-124.23652777825741,41.78016666695529,662.0,529
PTU,Platinum,AK,-161.82719166721628,59.01783055604327,641.0,530
VCT,Victoria,TX,-96.91848872211979,28.852545833222504,636.0,531
CXF,Coldfoot,AK,-150.20388888906356,67.25219444389884,578.0,532
EAA,Eagle,AK,-141.14961111059475,64.7780833329481,569.0,533
RMP,Rampart,AK,-150.14083333293428,65.50790000006796,539.0,534
TOG,Togiak,AK,-160.39677777774108,59.05355555600093,531.0,535
MLY,Manley Hot Springs,AK,-150.6475833332982,64.98794444413005,443.0,536
PTH,Port Heiden,AK,-158.63336194372025,56.959101110917864,424.0,537
KYK,Karluk,AK,-154.45380555620477,57.56605555610691,389.0,539
CHU,Caledonia,MN,-91.50394638901363,43.59635861103652,367.0,540
CLP,Clarks Point,AK,-158.52938888906897,58.8336944441381,359.0,541
GKN,Gulkana,AK,-145.45433333295833,62.15494444389071,358.0,542
TCL,Tuscaloosa,AL,-87.61140150031403,33.22062752785265,342.0,543
KFP,False Pass,AK,-163.40711111121203,54.84786111096116,342.0,544
WSN,South Naknek,AK,-157.00258333337675,58.70208333322669,324.0,545
EFD,Houston,TX,-95.1587499997806,29.607333333046327,320.0,546
DWH,Houston,TX,-95.55278841737864,30.06177911066647,300.0,547
YNG,Youngstown,OH,-80.68036111105434,41.26158333329567,274.0,548
FOE,Topeka,KS,-95.66361111079996,38.95094444381846,252.0,549
SMN,Salmon,ID,-113.88144444392314,45.12327777807327,246.0,550
AQY,Girdwood,AK,-149.11934583339868,60.96902222189572,233.0,552
CEM,Central,AK,-144.78088888881138,65.57394444409377,217.0,553
SQL,San Carlos,CA,-122.24953111106308,37.511861110823396,206.0,554
MRI,Anchorage,AK,-149.8447241388919,61.21354505613282,194.0,555
SLQ,Sleetmute,AK,-157.16586111133347,61.70050000005936,192.0,557
MHM,Minchumina,AK,-152.301833332896,63.88597222217996,183.0,559
TRM,Palm Springs,CA,-116.15966666711829,33.62666666684375,181.0,560
IGG,Igiugig,AK,-155.9017727778599,59.324041666991995,172.0,561
MYF,San Diego,CA,-117.13955555560206,32.81572222197422,168.0,562
KXA,Kasaan,AK,-132.39751444398956,55.53741388883216,151.0,563
MVL,Morrisville,VT,-72.61400000033446,44.53436111114916,144.0,566
KCC,Coffman Cove,AK,-132.83392250024107,56.014803889061135,136.0,567
EXI,Excursion Inlet,AK,-135.44903277810437,58.42049861107903,122.0,568
KCL,Chignik Flats,AK,-158.53448611055245,56.31096666710015,107.0,569
